name,GEOID_P,lon,lat
Ackley,00190,-93.052834061019,42.5520538071584
Ackworth,00235,-93.4731513028196,41.365548894904
Adair,00370,-94.644147539764,41.4996070315079
Adel,00505,-94.0216042361704,41.6147215127512
Afton,00595,-94.1962384820788,41.0283710235266
Agency,00640,-92.3069832553542,40.9964835374026
Ainsworth,00730,-91.556161511481,41.290520854364
Akron,00775,-96.5568727856761,42.8257831208473
Albert City,00865,-94.9489977312849,42.7805859020384
Albia,00910,-92.8043406844974,41.0259329390578
Albion,00955,-92.9899160459477,42.1113257974127
Alburnett,01000,-91.6209594623733,42.1501880134108
Alden,01045,-93.3749395752354,42.5173417794396
Alexander,01090,-93.4770714038813,42.8050761914728
Algona,01135,-94.2278302936197,43.0710204003926
Alleman,01180,-93.6079615215228,41.8114750594481
Allerton,01270,-93.3678615561629,40.7070504623251
Allison,01315,-92.7949920605938,42.7529848197179
Alta,01495,-95.3040517099848,42.6714573821832
Alta Vista,01540,-92.4151930593015,43.1978731463338
Alton,01585,-96.0116904511029,42.9864839280979
Altoona,01630,-93.4726929572966,41.6439522183636
Alvord,01675,-96.3026231095264,43.3418471881502
Amana,01720,-91.8757622183878,41.8012182957326
Ames,01855,-93.639918029073,42.0307567450117
Anamosa,01990,-91.2778933588635,42.1086816782733
Anderson,02035,-95.6050845761995,40.7990855758455
Andover,02080,-90.2515259503325,41.978977531944
Andrew,02125,-90.5921283181769,42.1536802245086
Anita,02260,-94.7665006190633,41.4451698701859
Ankeny,02305,-93.6124364713572,41.7330249873463
Anthon,02350,-95.8668567756725,42.3876110174544
Aplington,02395,-92.8828147763568,42.5821090845687
Arcadia,02485,-95.0443160492147,42.0852810882451
Archer,02530,-95.7453132906409,43.11510638392
Aredale,02620,-93.0039845460698,42.8345123764056
Arion,02755,-95.4630420732485,41.948652353585
Arispe,02800,-94.2196954282036,40.9491450553019
Arlington,02845,-91.6698864516854,42.748204308713
Armstrong,02935,-94.4804913531661,43.3952619171681
Arnolds Park,03025,-95.1214549460843,43.3630516748221
Arthur,03115,-95.3455987534792,42.3355216497704
Asbury,03160,-90.7747022664894,42.5117479096713
Ashton,03295,-95.7895833188256,43.3114361339406
Aspinwall,03340,-95.1347843204007,41.9122322051039
Atalissa,03385,-91.1664594551174,41.5715057595075
Athelstan,03430,-94.5430661865018,40.5724095613518
Atkins,03475,-91.8600644596502,41.9936113611533
Atlantic,03520,-95.0120743191516,41.4000632447498
Auburn,03610,-94.8766884286686,42.2509401341154
Audubon,03655,-94.9275270242639,41.7204960893492
Aurelia,03745,-95.4357971837063,42.7130182593145
Aurora,03835,-91.7286208195531,42.6191478119295
Avoca,03970,-95.3378273847618,41.481545795002
Ayrshire,04105,-94.8338415035092,43.0387120469153
Badger,04195,-94.1445907140648,42.6150500074606
Bagley,04240,-94.4301458287132,41.8465436355445
Baldwin,04330,-90.8402320444268,42.0740673997484
Balltown,04375,-90.8690006369424,42.6379407093173
Bancroft,04420,-94.216999495323,43.2924717510434
Bankston,04510,-90.9610157885479,42.5160774783195
Barnes City,04555,-92.4693224649769,41.5082351504643
Barnum,04645,-94.3646334518077,42.5063815695683
Bartlett,04735,-95.7948827188341,40.886587393414
Bassett,04780,-92.5160627557588,43.0635817734877
Batavia,04825,-92.167449490074,40.995879398128
Battle Creek,04870,-95.5992316429407,42.3176058679191
Baxter,04915,-93.1500621267904,41.8242202105078
Bayard,04960,-94.5581829411612,41.8518997585773
Beacon,05050,-92.6808070802586,41.2767829364042
Beaconsfield,05095,-94.0495408691734,40.8076354036144
Beaman,05140,-92.8232469802389,42.2210128778445
Beaver,05185,-94.1420866016865,42.0381889226824
Beaverdale,05200,-91.2095866970128,40.848456771686
Bedford,05365,-94.7218070008105,40.6694787782402
Belle Plaine,05590,-92.2775199502835,41.896238072383
Bellevue,05635,-90.4314087421406,42.2614105852018
Belmond,05680,-93.6098025284008,42.8469179710945
Bennett,05770,-90.974502296647,41.7399043404248
Bentley,05870,-95.6211082155005,41.3767864401181
Benton,05905,-94.3577787976137,40.7055419615551
Berkley,06040,-94.1137332830356,41.9444753908701
Bernard,06085,-90.8309249836624,42.312504541641
Bertram,06175,-91.5302500319376,41.958132172684
Bettendorf,06355,-90.4827898552252,41.5603689245259
Bevington,06490,-93.7898095157691,41.3600591040779
Birmingham,06625,-91.946999130216,40.8785992475542
Blairsburg,06760,-93.6417352833434,42.4803253842415
Blairstown,06805,-92.0831217632212,41.9064851059983
Blakesburg,06850,-92.6361601045038,40.9618854968988
Blanchard,06895,-95.221275283514,40.5797598352707
Blencoe,06940,-96.082789564431,41.9310325016206
Blockton,06985,-94.4778156119793,40.6160986576785
Bloomfield,07030,-92.4167474949384,40.7495984983037
Blue Grass,07075,-90.7674717968018,41.5106141191105
Bode,07210,-94.2875458103509,42.8671319182696
Bolan,07255,-93.1116648348693,43.3703183779475
Bonaparte,07345,-91.8006452272324,40.7001872214756
Bondurant,07390,-93.4637391288067,41.6961931089476
Boone,07480,-93.8812737731996,42.0608041606566
Bouton,07660,-94.0100674700684,41.8515462359061
Boxholm,07750,-94.1061009899626,42.1752495234535
Boyden,07840,-96.0029493067329,43.1901756278883
Braddyville,07930,-95.0290205901088,40.5785504752751
Bradford,08020,-93.2470169946088,42.6335934364179
Bradgate,08065,-94.4196065050244,42.8033820584048
Brandon,08155,-92.0037188112228,42.3142562114066
Brayton,08200,-94.9240255311801,41.5442926867028
Breda,08290,-94.97754516741,42.1825456071889
Bridgewater,08425,-94.6690239671107,41.2475350238621
Brighton,08470,-91.8212143201859,41.1732930777653
Bristow,08560,-92.906202276243,42.7726744831557
Britt,08605,-93.8029668871698,43.0958845990809
Bronson,08650,-96.2133602794757,42.4102245122144
Brooklyn,08695,-92.4446564316712,41.7319231475513
Brunsville,08875,-96.2681942017002,42.8094463329835
Buck Grove,09145,-95.3957682774749,41.9192663321402
Buckeye,09100,-93.3750275068568,42.4182819820997
Buffalo,09235,-90.7144282711079,41.4619102277619
Buffalo Center,09280,-93.9464964345402,43.3870684477535
Burchinal,09415,-93.2788385785269,43.0650831193063
Burlington,09550,-91.120400024442,40.8080055567858
Burr Oak,09640,-91.8653401280547,43.4578125267181
Burt,09685,-94.2215461600429,43.1981349405745
Bussey,09730,-92.8851126653704,41.2053547472588
Calamus,09820,-90.7587537488941,41.8262364700995
California Junction,09910,-95.9947845449077,41.5591520524597
Callender,09955,-94.2943775076245,42.3622588657483
Calmar,10045,-91.866050996088,43.1838409526943
Calumet,10090,-95.550114892479,42.944919963328
Camanche,10135,-90.26076385884,41.7936703415879
Cambridge,10225,-93.532283913166,41.8986355238572
Cantril,10450,-92.0685701158064,40.6442835619479
Carbon,10585,-94.8233735287675,41.0494925047383
Carlisle,10765,-93.4926934433152,41.500104915285
Carpenter,11035,-93.0168389117397,43.4151965856998
Carroll,11080,-94.8648569536934,42.0690034248709
Carson,11170,-95.4180620298323,41.2360081672276
Carter Lake,11215,-95.9155909151424,41.2929555563935
Cascade,11305,-91.0094609286469,42.2995567546524
Casey,11395,-94.5197840915708,41.5076713566091
Castalia,11485,-91.6759538815927,43.1129580741319
Castana,11530,-95.9089740239476,42.0738241452393
Cedar Falls,11755,-92.4543585815417,42.518880984861
Cedar Rapids,12000,-91.6765561224004,41.9871303220874
Center Junction,12225,-91.0874713723588,42.1155533466438
Center Point,12270,-91.7813253379522,42.1873807645318
Centerville,12315,-92.8721832555515,40.7306488921956
Central City,12495,-91.5257811417789,42.2032105980883
Centralia,12630,-90.8362271358424,42.4728586726667
Chapin,12675,-93.2217956299997,42.8353564073725
Chariton,12720,-93.3086085380138,41.0164976046923
Charles City,12765,-92.6747282561964,43.0642340071253
Charlotte,12855,-90.4670488513674,41.9621896145123
Charter Oak,12900,-95.589925676882,42.0665316554128
Chatsworth,12945,-96.5129498838565,42.9160246182623
Chelsea,12990,-92.3935409630469,41.9202844597495
Cherokee,13080,-95.5503752018496,42.7544845569185
Chester,13125,-92.360544464952,43.4909959667454
Chillicothe,13215,-92.5300665853075,41.0853543883512
Churdan,13350,-94.4777605445501,42.1540648491137
Cincinnati,13395,-92.9255005426775,40.6305947247542
Clare,13485,-94.3448448853594,42.5878385985887
Clarence,13530,-91.0577107838322,41.886533393806
Clarinda,13575,-95.0356671135881,40.7375920395568
Clarion,13620,-93.7296934708566,42.7311848512116
Clarksville,13755,-92.6691803552746,42.7837269364003
Clayton,13845,-91.1439395431441,42.9006349379548
Clear Lake,14025,-93.3791183263915,43.1367585866414
Clearfield,13980,-94.4775839769435,40.8007670473891
Cleghorn,14115,-95.7130492708193,42.8121230266038
Clemons,14160,-93.1580909993798,42.1142521548586
Clermont,14250,-91.6524320618043,42.9996782521867
Climbing Hill,14385,-96.0807287174499,42.342116743945
Clinton,14430,-90.2151085294424,41.8459921770028
Clio,14475,-93.4500870166313,40.6353799391561
Clive,14520,-93.8011012699793,41.6158784602829
Clutier,14655,-92.4023238590627,42.078394097515
Coalville,14835,-94.1294014067843,42.4421282398799
Coburg,14880,-95.2660895210997,40.9168282153515
Coggon,14925,-91.5297638326179,42.2788124930858
Coin,14970,-95.233696811917,40.6562901501754
Colesburg,15015,-91.2011127831327,42.6396321763143
Colfax,15060,-93.2444310301613,41.675579203983
College Springs,15105,-95.1204477229468,40.6209721377594
Collins,15195,-93.3060338031692,41.9027485670558
Colo,15240,-93.3168495486072,42.0176392663844
Columbus City,15375,-91.3746505094011,41.2589272059369
Columbus Junction,15420,-91.3643623226745,41.2762591894305
Colwell,15465,-92.5926419685402,43.1566428648666
Conesville,15645,-91.3490654254642,41.3813139684653
Conrad,15825,-92.8732946679726,42.2257679393333
Conroy,15870,-91.9982333219877,41.7298319716105
Conway,15960,-94.6196465335452,40.7489941625847
Coon Rapids,16050,-94.6781273900412,41.8729886938692
Coppock,16140,-91.7119140535872,41.1628489166801
Coralville,16230,-91.5840975867833,41.6988923001716
Corley,16320,-95.3308205970447,41.5775037510506
Corning,16500,-94.7380948877106,40.9924390526066
Correctionville,16545,-95.7823980524729,42.4778158791196
Corwith,16590,-93.9560243960571,42.9915204577335
Corydon,16635,-93.3191496855684,40.7593238519581
Cotter,16725,-91.4653777497715,41.2929047953365
Coulter,16815,-93.3683547679577,42.7349188318981
Council Bluffs,16860,-95.8557226719618,41.2477413055891
Craig,16950,-96.3093008266861,42.894854967908
Crawfordsville,17130,-91.5376130281392,41.214923267986
Crescent,17175,-95.8583685751686,41.363587677807
Cresco,17220,-92.1134480260043,43.3744715438328
Creston,17265,-94.3634236747716,41.0602361198251
Cromwell,17490,-94.4626319507123,41.0409522352019
Crystal Lake,17670,-93.7911826407577,43.2226196461072
Cumberland,17760,-94.8707715902555,41.2731848403668
Cumming,17850,-93.7515519914541,41.486017939848
Curlew,17895,-94.7372646752205,42.9793344075339
Cushing,17940,-95.6755471664844,42.4647901252688
Cylinder,17985,-94.550230685213,43.0891222990615
Dakota City,18075,-94.2014876263832,42.722399039199
Dallas Center,18255,-93.9649088459171,41.6843042861532
Dana,18345,-94.2394436420817,42.1071217441534
Danbury,18390,-95.7210425221864,42.2358994056408
Danville,18435,-91.3148682187913,40.8622747570959
Davenport,19000,-90.5943745751675,41.5494546827615
Davis City,19090,-93.8112847542176,40.638057663989
Dawson,19135,-94.220778695461,41.8425477962201
Dayton,19180,-94.0695435619247,42.2629344293122
De Soto,21045,-94.008915550269,41.533229878685
Decatur City,19360,-93.8336721718994,40.741795940902
Decorah,19405,-91.7872610199436,43.3019963283062
Dedham,19450,-94.8232440173939,41.9074394924059
Deep River,19495,-92.3729111387999,41.5807456041393
Defiance,19585,-95.3419181707776,41.8254587792988
Delaware,19630,-91.3456481162304,42.4739887867368
Delhi,19675,-91.3326592096029,42.4284836064462
Delmar,19720,-90.6074023899431,42.0007594684567
Deloit,19765,-95.3190191798641,42.0983957028543
Delphos,19810,-94.3382943972249,40.6623892721256
Delta,19855,-92.3296802129824,41.3238338216164
Denison,19945,-95.3525211239025,42.016572705158
Denmark,19990,-91.3367414220895,40.7411756215705
Denver,20035,-92.3324147440806,42.6709075781641
Derby,20125,-93.4555778156593,40.9312468962337
Des Moines,21000,-93.6200384538701,41.5865345025056
DeWitt,21180,-90.5455963737455,41.8250420970133
Dexter,21225,-94.2273664328363,41.5159777332202
Diagonal,21270,-94.3419562780958,40.8092835369644
Diamondhead Lake,21320,-94.2610316888722,41.5502365325683
Dickens,21360,-95.0217531259991,43.1310892934435
Dike,21405,-92.6255115995285,42.46577918769
Dixon,21540,-90.78216988559,41.7421756853457
Dolliver,21675,-94.6140885076995,43.4655015255907
Donahue,21720,-90.6749877690337,41.6920408175862
Donnellson,21810,-91.5657364834482,40.6429117924554
Doon,21900,-96.2335318353172,43.2777314212391
Douds,22035,-92.08216487579,40.8426153989611
Dougherty,22080,-93.0399161894203,42.9223643377199
Dow City,22215,-95.4945841714673,41.9284656586527
Dows,22305,-93.5023437357492,42.657684267954
Drakesville,22350,-92.4815124597243,40.7987653028981
Dubuque,22395,-90.6956902913919,42.5026217782646
Dumont,22620,-92.9715722239528,42.7497248405038
Duncan,22710,-93.708203388115,43.1043474769785
Duncombe,22755,-93.9931116775693,42.4695163735481
Dundee,22800,-91.5455640214152,42.5788299940593
Dunkerton,22845,-92.1603528573152,42.5683120014906
Dunlap,22890,-95.5998546152335,41.8530464569205
Durango,22935,-90.7756307068444,42.5604956386633
Durant,22980,-90.9085377673192,41.6013696980214
Dyersville,23115,-91.1188884055577,42.480705884749
Dysart,23160,-92.309084029828,42.1695112992414
Eagle Grove,23250,-93.9033518652667,42.6637008123068
Earlham,23340,-94.1229377942049,41.4937012605474
Earling,23385,-95.4185456339228,41.7761089231039
Earlville,23430,-91.2706794270746,42.4821032176239
Early,23475,-95.1521646590641,42.4617626678344
East Amana,23520,-91.8495214900723,41.8095069001694
East Peru,23790,-93.9265238810849,41.2276739192765
Eddyville,23970,-92.6328358049201,41.1596290100066
Edgewood,24060,-91.4012952088783,42.643977760317
Elberon,24375,-92.3178310628336,42.0056544141063
Eldon,24420,-92.2195332421278,40.9171170768546
Eldora,24465,-93.1001051483203,42.3600848663804
Eldridge,24600,-90.5805497240962,41.6466420144272
Elgin,24645,-91.636419947931,42.9552430482177
Elk Horn,24780,-95.0598857751148,41.5929611951052
Elk Run Heights,24870,-92.2559126429674,42.4671955495328
Elkader,24690,-91.4026592999006,42.8585503525354
Elkhart,24735,-93.5220518884373,41.7933542457201
Elkport,24825,-91.2751882444268,42.7424291614333
Elliott,24915,-95.1626558445935,41.1489893076549
Ellston,25005,-94.1091670128952,40.8405935350499
Ellsworth,25050,-93.5785373346687,42.3128906238146
Elma,25095,-92.4386466815201,43.2452231269455
Ely,25365,-91.5806192918538,41.8737331843506
Emerson,25500,-95.4023075042098,41.0184197385385
Emmetsburg,25590,-94.6807075710452,43.1125092235903
Epworth,25725,-90.9303235971779,42.4455640447025
Essex,25815,-95.3039629154045,40.8321011640706
Estherville,25860,-94.8295162630187,43.4042523746906
Evansdale,25995,-92.2801456342663,42.4668637126073
Everly,26175,-95.326316794599,43.1612851569618
Exira,26265,-94.8782705731048,41.5909523158993
Exline,26310,-92.8419708492369,40.6496433012068
Fairbank,26355,-92.0482975179614,42.6399126265167
Fairfax,26400,-91.7710074899519,41.9294586344502
Fairfield,26445,-91.9715399132181,41.0050355701247
Farley,26760,-91.0065346464682,42.4422675653302
Farmersburg,26850,-91.366847547417,42.9587183226105
Farmington,26895,-91.7399833976991,40.6399381649214
Farnhamville,26940,-94.4060700273664,42.2770345091127
Farragut,26985,-95.4808207601534,40.7214255451643
Fayette,27165,-91.8031382527344,42.8420587667995
Fenton,27210,-94.4266175917047,43.2173062308206
Ferguson,27255,-92.8648463452963,41.9374633511863
Fertile,27390,-93.4226979185918,43.2652811843551
Floris,27975,-92.3310173480848,40.8653402440188
Floyd,28020,-92.7386637543148,43.127079781535
Fonda,28245,-94.8444302979957,42.5823347394451
Fontanelle,28290,-94.5626438554057,41.2896758980642
Forest City,28380,-93.6389311860633,43.2602159576486
Fort Atkinson,28425,-91.9334116679967,43.1442207934794
Fort Dodge,28515,-94.1749846806437,42.5086481360636
Fort Madison,28605,-91.3398302183658,40.6304436419479
Fostoria,28650,-95.1537384918159,43.2416153839671
Franklin,28740,-91.5119927793823,40.6668362949196
Fraser,28920,-93.9670718933231,42.127035709762
Fredericksburg,28965,-92.1990639346062,42.9645136341911
Frederika,29010,-92.3060568566648,42.8821313762569
Fredonia,29055,-91.3380228158389,41.2846460959291
Fremont,29190,-92.4344719149232,41.2125893554382
Fruitland,29280,-91.126533030651,41.3545728612395
Frytown,29325,-91.7346173097805,41.5720337316781
Galt,29550,-93.6049912545099,42.6932171223902
Galva,29595,-95.4170400016422,42.5063489457137
Garber,29685,-91.2638617432092,42.7432120740929
Garden City,29730,-93.39634470621,42.2454702327556
Garden Grove,29775,-93.6081228754821,40.8269021947308
Garnavillo,29910,-91.2349385769243,42.8667079143049
Garner,29955,-93.6044204602286,43.0994094146448
Garrison,30000,-92.142681441994,42.1439365043308
Garwin,30045,-92.6757143716224,42.0941467049814
Geneva,30135,-93.1303926590629,42.6763802161602
George,30225,-95.9989480760339,43.3432194570102
Gibson,30540,-92.3929354538229,41.4802902577633
Gilbert,30630,-93.6431937945235,42.1050548441164
Gilbertville,30675,-92.2138918688362,42.4179280809409
Gillett Grove,30810,-95.0360630730435,43.0146879639763
Gilman,30900,-92.7878955151348,41.8796132129015
Gilmore City,30945,-94.4423742818227,42.7298623471139
Gladbrook,31035,-92.7154080113441,42.1850445848233
Glenwood,31350,-95.7425222452962,41.0477111605181
Glidden,31395,-94.7279688519971,42.0590510576156
Goldfield,31530,-93.9208500524895,42.7353199113654
Goodell,31575,-93.6154913443155,42.9230366918323
Goose Lake,31665,-90.3812878370793,41.9671451980927
Gowrie,31710,-94.2908079566417,42.2799924479087
Graettinger,31800,-94.7512081196213,43.2381595918078
Graf,31845,-90.871734763984,42.49405707996
Grafton,31890,-93.0695722844976,43.3299451353974
Grand Junction,31980,-94.2359911668421,42.0309127853636
Grand Mound,32025,-90.6485260752823,41.8233790389903
Grand River,32070,-93.9624992366527,40.8191374706379
Grandview,32115,-91.1880839873067,41.2771079264967
Granger,32160,-93.8205327560848,41.7599720467641
Grant,32295,-94.9843251371008,41.1420683745267
Granville,32475,-95.8747824263508,42.9841898384886
Gravity,32520,-94.7439036161048,40.7596162185991
Gray,32565,-94.981008509446,41.8399847060875
Greeley,32610,-91.342445670893,42.5856593530213
Green Mountain,32925,-92.8209328718931,42.1032297034101
Greene,32745,-92.8045710408261,42.8963790740231
Greenfield,32790,-94.4594625145826,41.3046585902838
Greenville,32970,-95.1434648100186,43.0153687985971
Grimes,33060,-93.7888985515099,41.6852569133029
Grinnell,33105,-92.7234459865091,41.7406118656603
Griswold,33150,-95.1405476999173,41.2346183978665
Grundy Center,33195,-92.7735819562556,42.3607865311617
Gruver,33240,-94.7044256751168,43.3928379803649
Guernsey,33285,-92.3433626834549,41.6493292226494
Guthrie Center,33420,-94.5023774198556,41.6804503230185
Guttenberg,33465,-91.1022435463587,42.7877594184038
Halbur,33645,-94.9718475137447,42.0062792532312
Hamburg,33780,-95.6564820430008,40.6048793553678
Hamilton,33870,-92.9042034513012,41.1705725480096
Hampton,33960,-93.2100662415335,42.741847078453
Hancock,34005,-95.3627807067033,41.3901643656229
Hanlontown,34185,-93.3786260774251,43.280265853751
Hansell,34365,-93.103957666486,42.7565242892331
Harcourt,34410,-94.1765745362897,42.2631383553457
Hardy,34455,-94.0513177870952,42.8092643927875
Harlan,34500,-95.3267204858822,41.6519242220995
Harper,34545,-92.0521251005014,41.362037030605
Harpers Ferry,34590,-91.1507797592421,43.2036661875168
Harris,34635,-95.4332317822625,43.444703793224
Hartford,34680,-93.4027016325232,41.4598350156149
Hartley,34725,-95.4759407462899,43.1810788371268
Hartwick,34770,-92.3446412827122,41.785269868493
Harvey,34860,-92.9248276579908,41.3160249093104
Hastings,34995,-95.4975352913856,41.022877475929
Havelock,35130,-94.7018739193949,42.8335665812261
Haverhill,35220,-92.9614629565443,41.9442684265405
Hawarden,35265,-96.4828950087324,43.0003387527956
Hawkeye,35310,-91.9498681964682,42.9379061349317
Hayesville,35445,-92.2488088639626,41.2643801657846
Hayfield,35490,-93.6945099794107,43.1774260495745
Hazleton,35580,-91.9045029636722,42.6171334303596
Hedrick,35670,-92.3083106803185,41.1733442721986
Henderson,35715,-95.4301531858286,41.1398504294946
Hepburn,35760,-95.0167886252087,40.848650267991
Hiawatha,35940,-91.6909609439077,42.0500275151258
High Amana,36030,-91.9402180718822,41.8025483467349
Hills,36345,-91.5333893814727,41.5543174938314
Hillsboro,36390,-91.7130081798887,40.8364459835272
Hinton,36480,-96.2973762059807,42.6214647051039
Holiday Lake,36660,-92.4478928601121,41.8167097875169
Holland,36705,-92.7999510779089,42.4003395170391
Holstein,36840,-95.5426212273356,42.4871716316442
Holy Cross,36885,-90.9951244340537,42.5999836172213
Homestead,36975,-91.8718418477955,41.7605100983898
Hopkinton,37155,-91.2468734985158,42.3447877981213
Hornick,37200,-96.096689214618,42.2304972335701
Hospers,37290,-95.9041166695149,43.0721241675352
Houghton,37335,-91.6108186039521,40.7837528355439
Hubbard,37425,-93.2990518128487,42.304533417821
Hudson,37470,-92.4503623880982,42.4216881150305
Hull,37515,-96.1338588136098,43.1902210784923
Humboldt,37560,-94.2232594990205,42.7248335168482
Humeston,37605,-93.4970247132123,40.8599158590134
Hutchins,37875,-93.8843970009601,43.0914421959576
Huxley,37920,-93.6001390391535,41.8993880951434
Ida Grove,38010,-95.4707073381924,42.3423220221502
Imogene,38055,-95.4268814532326,40.8792914702364
Independence,38100,-91.8954178420654,42.467764025107
Indianola,38280,-93.5619239841052,41.3646303504313
Inwood,38415,-96.4321352022771,43.3066678438007
Ionia,38460,-92.4566856320241,43.0346893052864
Iowa City,38595,-91.528786686872,41.6562282263233
Iowa Falls,38640,-93.2707699809713,42.522712627731
Ireton,38820,-96.3166084294272,42.9739303751819
Irvington,38955,-94.1941774493524,43.0082643969824
Irwin,39000,-95.2064152990224,41.7916487891311
Jackson Junction,39135,-92.0389486614356,43.1076790662741
Jacksonville,39180,-95.1512959287448,41.6442738714109
Jamaica,39225,-94.3063065793524,41.8461199847306
Janesville,39405,-92.4632094637227,42.6462340707564
Jefferson,39450,-94.3781286179636,42.0154237802472
Jesup,39585,-92.0637549107372,42.4743093019563
Jewell Junction,39675,-93.6440341561385,42.3055303969188
Johnston,39765,-93.7237594266793,41.6796622739945
Joice,39855,-93.4535693086829,43.3627587450584
Jolley,39900,-94.7188356003696,42.4788762239452
Kalona,40170,-91.704298671925,41.4878777475323
Kamrar,40215,-93.7287193536347,42.3927111650756
Kanawha,40260,-93.7921686784212,42.936239743768
Kellerton,40350,-94.0490065272094,40.7111658245892
Kelley,40395,-93.6667383299109,41.9506646115486
Kellogg,40440,-92.9080933116417,41.7166818220984
Kensett,40665,-93.2092075574015,43.3529936557879
Kent,40710,-94.4564843234783,40.9539120818717
Keokuk,40845,-91.3999233002157,40.4075207915751
Keomah Village,40890,-92.5369003892307,41.2893781026432
Keosauqua,40935,-91.9635520542193,40.7341298819485
Keota,40980,-91.954481039252,41.3644979627623
Keswick,41070,-92.2386878752511,41.4540184213214
Keystone,41115,-92.1986511162622,42.0004163143006
Kimballton,41295,-95.074462093713,41.628864255501
Kingsley,41385,-95.9692024087763,42.5880996995941
Kinross,41475,-91.9863870175135,41.4588020137539
Kirkman,41520,-95.2654945639044,41.7298283058151
Kirkville,41565,-92.5052492561193,41.1420466143398
Kiron,41610,-95.3274676104662,42.1953714809161
Klemme,41655,-93.6012578661531,43.0072759055374
Knierim,41790,-94.4571358796866,42.4546841611104
Knoxville,42015,-93.1037548119441,41.3198726342649
La Motte,43050,-90.6210987252968,42.2947222685756
La Porte City,43365,-92.1919848832815,42.3144564934554
Lacona,42285,-93.3842602134925,41.1895986621719
Ladora,42330,-92.1845331361079,41.7555465341794
Lake City,42465,-94.7340587657469,42.2679746189535
Lake Mills,42555,-93.5309103780119,43.4183024060248
Lake Panorama,42575,-94.3926016969154,41.7151126433308
Lake Park,42600,-95.3225449183659,43.4503441953079
Lake View,42690,-95.043128717085,42.3056571760835
Lakeside,42645,-95.1771164921066,42.6177846041278
Lakota,42825,-94.0950432780874,43.3777592595775
Lambs Grove,42870,-93.0786734856174,41.7010060724465
Lamoni,42960,-93.9336007778132,40.6218695840981
Lamont,43005,-91.6418299864075,42.5993857147166
Lanesboro,43140,-94.6920091852039,42.184482944324
Lansing,43275,-91.2263452283121,43.3601142913285
Larchwood,43410,-96.4328023096445,43.4531624746501
Larrabee,43500,-95.545610153485,42.8616284150889
Latimer,43590,-93.3677440342945,42.7626204752367
Laurel,43680,-92.9224690956151,41.8835825879932
Laurens,43725,-94.8487880201402,42.8474990014025
Lawler,43815,-92.153209530067,43.0695109278983
Lawton,43905,-96.1811840970644,42.4783867335432
Le Claire,44085,-90.3646500517413,41.593582673982
Le Grand,44220,-92.7755760750841,42.005036232244
Le Mars,44400,-96.1705072995155,42.7824833840813
Le Roy,44580,-93.5933681824975,40.8783932836579
Leando,43950,-92.0864557230647,40.8291093923234
Ledyard,44130,-94.1607180329409,43.4211860278372
Lehigh,44265,-94.0535413603304,42.35743615849
Leighton,44310,-92.7866338801499,41.3386340861972
Leland,44355,-93.6346611759,43.3358161071823
Lenox,44490,-94.5597119588795,40.8820332064741
Leon,44535,-93.7483215182978,40.7412346726167
Lester,44670,-96.3318059883969,43.4379981107917
Letts,44715,-91.2362580731213,41.3286000238172
Lewis,44805,-95.086127887172,41.3056418116748
Libertyville,44985,-92.0496655925584,40.9583119471176
Lidderdale,45030,-94.7832928476526,42.1245181159013
Lime Springs,45165,-92.2822044745592,43.4499929586171
Lincoln,45255,-92.6913234259377,42.2625868646035
Linden,45390,-94.2695793307214,41.6436530857828
Lineville,45435,-93.523336247217,40.5864274157462
Linn Grove,45480,-95.2439088550843,42.8893224339357
Lisbon,45615,-91.3896537592316,41.9209981204617
Liscomb,45660,-93.0058286474285,42.1898344742464
Little Cedar,45705,-92.7268214940494,43.3778160130195
Little Rock,45795,-95.8821199042619,43.4435859237111
Little Sioux,45840,-96.0248143730445,41.8086445541956
Livermore,45975,-94.1844687311672,42.8681241519763
Lockridge,46065,-91.7524141161254,40.9943056781456
Logan,46155,-95.7919585857597,41.6453611076149
Lohrville,46245,-94.5473887739827,42.2690590243598
Lone Rock,46290,-94.3249319387124,43.220471288729
Lone Tree,46335,-91.4262950124399,41.4850737179645
Long Grove,46425,-90.5832324520499,41.6947408616339
Lorimor,46515,-94.0559200081229,41.1264677431237
Lost Nation,46605,-90.8176825863327,41.9636385147507
Loveland,46785,-95.8918984098359,41.4970297223716
Lovilia,46830,-92.9070474848612,41.1333561624291
Low Moor,47010,-90.3560958776923,41.8009890573262
Lowden,46920,-90.9252313357171,41.8584411492811
Lu Verne,47370,-94.0843758848466,42.9115464488283
Luana,47055,-91.4550476167396,43.0599360617545
Lucas,47100,-93.4609618714537,41.0301123315432
Luther,47280,-93.819675401161,41.9669644353283
Luxemburg,47460,-91.0742374720297,42.6010223953847
Luzerne,47505,-92.1804201953214,41.9058430053169
Lynnville,47595,-92.7838472994347,41.5768198483896
Lytton,47730,-94.859219744733,42.4235469091878
Macedonia,47955,-95.4255762984261,41.1921338474956
Macksburg,48180,-94.1861889076853,41.2146707419204
Madrid,48450,-93.8209667624593,41.8751217789626
Magnolia,48495,-95.8734656064227,41.6944950146657
Maharishi Vedic City,48500,-92.0133688618941,41.0550874055475
Malcom,48540,-92.5548454834349,41.7073461001491
Mallard,48585,-94.6836008042631,42.9374005606795
Maloy,48675,-94.4124976029551,40.6747365213774
Malvern,48720,-95.5834587232495,41.0032189518122
Manchester,48810,-91.4551597396799,42.4898383136393
Manilla,48855,-95.2328354116098,41.8883551770794
Manly,48900,-93.2036229326236,43.286862383404
Manning,48945,-95.0638508430883,41.9076185192441
Manson,48990,-94.5349507706831,42.5295016263358
Mapleton,49170,-95.7894983511339,42.163807282404
Maquoketa,49215,-90.6664984396292,42.0632760931258
Marathon,49260,-94.983014784043,42.8607961329813
Marble Rock,49305,-92.8668116146208,42.9647810905553
Marcus,49350,-95.8051423176554,42.8211577569328
Marengo,49395,-92.0687098505241,41.7978658378331
Marion,49485,-91.5908428862729,42.0457766073446
Marne,49575,-95.1120739077031,41.4492966781803
Marquette,49620,-91.1886789495621,43.0440233594324
Marshalltown,49755,-92.9176684179327,42.0391526682568
Martelle,49845,-91.3571267104053,42.0207111803612
Martensdale,49890,-93.7413400814451,41.3737348581075
Martinsburg,49935,-92.2516057727974,41.1789134365175
Marysville,50070,-92.9540550217355,41.1823476542156
Mason City,50160,-93.2026056125608,43.149544074381
Masonville,50205,-91.5908198831783,42.4796305253535
Massena,50250,-94.7695264498231,41.253878618062
Matlock,50385,-95.9356362149636,43.2436599938048
Maurice,50430,-96.1786181390539,42.9675241532297
Maxwell,50520,-93.3971328688258,41.890849464356
Maynard,50610,-91.8788574145331,42.7751077197846
Maysville,50655,-90.7172328510161,41.6487769126744
McCallsburg,47775,-93.3895749598318,42.1658186435286
McCausland,47820,-90.446534441692,41.7440703537321
McClelland,47865,-95.6822287352477,41.3299901179445
McGregor,48000,-91.1827259151252,43.0223635404924
McIntire,48045,-92.5947902899072,43.4369221940444
Mechanicsville,50700,-91.2533990328971,41.9053223821728
Mediapolis,50790,-91.1637622149516,41.0073873326022
Melbourne,50880,-93.102245438806,41.940996138853
Melcher-Dallas,50935,-93.2403563559836,41.2261898094754
Melrose,50970,-93.0501531183804,40.9764956504755
Melvin,51060,-95.6086602323532,43.2863024629726
Menlo,51105,-94.4053361129699,41.5214367365905
Meriden,51150,-95.6342105424691,42.7944233388302
Merrill,51375,-96.251562616526,42.7207389136131
Meservey,51420,-93.4771124601258,42.9133258608034
Meyer,51510,-92.6977813482172,43.4592895989028
Middle Amana,51600,-91.8985820555612,41.7978407768689
Middletown,51735,-91.2599983027776,40.8285587366721
Miles,52050,-90.3129709618776,42.0472326167152
Milford,52095,-95.148700475519,43.3301992120404
Miller,52140,-93.6023432448071,43.1837134814135
Millersburg,52230,-92.1596796974718,41.5728973086547
Millerton,52275,-93.3055066656268,40.8489419485002
Milo,52455,-93.4405780015293,41.2881388216858
Milton,52500,-92.1609183001416,40.672734361952
Minburn,52545,-94.0295582927436,41.7567600563321
Minden,52590,-95.5426276242971,41.4681775553942
Mineola,52635,-95.6938427899458,41.1427597598528
Mingo,52815,-93.2827172162988,41.7662616449331
Missouri Valley,52860,-95.8928199139646,41.5582869525265
Mitchell,52905,-92.8697077978665,43.3209527483958
Mitchellville,52950,-93.359767009185,41.6685978777891
Modale,52995,-96.0104704163289,41.6201537393153
Mona,53085,-92.9448868622403,43.4857851651204
Mondamin,53175,-96.0213966159103,41.7103701854076
Monmouth,53265,-90.8799912138347,42.07589014404
Monona,53310,-91.3915716414488,43.0514428905061
Monroe,53355,-93.1039922885212,41.5205673306756
Montezuma,53490,-92.5269643471443,41.583961819638
Monticello,53625,-91.1916936428223,42.2399059251041
Montour,53670,-92.7138885314458,41.9804387433447
Montrose,53760,-91.4171317627143,40.5286170698826
Moorhead,53850,-95.8506258046154,41.9235890716285
Moorland,53895,-94.2945558997173,42.4426942496
Moravia,53985,-92.8181671772365,40.8919803127519
Morley,54030,-91.2460001727936,42.0063073171633
Morning Sun,54120,-91.2524771407373,41.0948264253443
Morrison,54165,-92.6735203939887,42.3428352198506
Moulton,54390,-92.67741640165,40.684916278706
Mount Auburn,54435,-92.0928145307529,42.2565730811872
Mount Ayr,54480,-94.2372602597542,40.7143896942455
Mount Pleasant,54705,-91.5474166299899,40.9645825089035
Mount Sterling,54750,-91.9362513313879,40.6175405067622
Mount Union,54795,-91.3914816260535,41.0573582297324
Mount Vernon,54840,-91.4219227714263,41.9219150541776
Moville,54930,-96.0682740823459,42.4886697581733
Murray,55065,-93.9498940306743,41.0416314053005
Muscatine,55110,-91.0581957758591,41.4254943108867
Mystic,55200,-92.9440033064971,40.7816480262471
Nashua,55335,-92.5387098216994,42.9523240476177
Nemaha,55515,-95.0893480947371,42.5155934166389
Neola,55560,-95.6185773129593,41.4516457677771
Nevada,55695,-93.4523990877204,42.018785713964
New Albin,55785,-91.2862283697483,43.4957852775175
New Hampton,56100,-92.3156645351282,43.0579384741535
New Hartford,56145,-92.6214856622871,42.5674994595006
New Haven,56190,-92.6434668618786,43.2846831912207
New Liberty,56280,-90.8782044992231,41.7164159472371
New London,56325,-91.400827285638,40.9242838203515
New Market,56370,-94.9013488652749,40.7311010809903
New Providence,56415,-93.1722023016809,42.2819616173394
New Sharon,56460,-92.6510240614302,41.4686926793904
New Vienna,56550,-91.1132293547002,42.5473181137065
New Virginia,56595,-93.7296775279567,41.1824221436545
Newell,55965,-95.0039221233786,42.606157848466
Newhall,56055,-91.9670584533243,41.9934580580695
Newton,56505,-93.0430378851872,41.6972612644593
Nichols,56685,-91.3078348192947,41.4803660732592
Nodaway,56865,-94.8939233202725,40.937500984912
Nora Springs,56910,-93.0100952249507,43.1446197569682
North Buena Vista,57135,-90.9551485063013,42.6798729069446
North English,57225,-92.0783627850337,41.5152534417314
North Liberty,57360,-91.6068379486928,41.7467085969416
North Washington,57495,-92.4148787668842,43.116854607976
Northboro,57045,-95.292208131556,40.6078018770043
Northwood,57630,-93.2169018900235,43.4463299304991
Norwalk,57675,-93.68313915826,41.4876165687475
Norway,57720,-91.9212831318497,41.9035749884257
Numa,57945,-92.9797559549483,40.6856754111455
Oakland,58080,-95.3937085920643,41.3099145334415
Oakland Acres,58170,-92.8229873388117,41.7193406942297
Oakville,58395,-91.0425220799382,41.0986955688611
Ocheyedan,58530,-95.5342470289405,43.416030896689
Odebolt,58575,-95.2528497028925,42.3104733155038
Oelwein,58620,-91.9122943041312,42.6729973571671
Ogden,58665,-94.0294898533727,42.0383975656984
Okoboji,58710,-95.1333860492528,43.3844182834971
Olds,58890,-91.5455553235197,41.1334870178014
Olin,58980,-91.1412194905606,41.9975514996598
Ollie,59070,-92.0930618041255,41.1978883512146
Onawa,59115,-96.0980124980856,42.0273410973271
Onslow,59250,-91.0150010073757,42.1070785592579
Orange City,59475,-96.0570079624116,43.0034970844674
Orchard,59520,-92.7743785045891,43.2271839004374
Orient,59565,-94.4170341022203,41.2029944180202
Orleans,59655,-95.0972620531424,43.4500547089111
Osage,59745,-92.8111511517356,43.2838116928219
Osceola,59835,-93.7677661963999,41.0334902105667
Oskaloosa,59925,-92.6412130757324,41.2922950756262
Ossian,59970,-91.7641270640025,43.1465160957304
Osterdock,60015,-91.1596990988094,42.7300409064317
Otho,60105,-94.1493239833729,42.4241329931328
Oto,60240,-95.8940423103883,42.2844905676189
Otranto,60285,-92.987030831679,43.4586853685253
Ottosen,60420,-94.3776241709139,42.8955236337016
Ottumwa,60465,-92.4203655334763,41.0156928870748
Owasa,60555,-93.2057217475744,42.4311744164016
Oxford,60645,-91.7896771916326,41.7236314691592
Oxford Junction,60690,-90.9545778655814,41.9845578719896
Oyens,60780,-96.057705741676,42.8201125182652
Pacific Junction,60825,-95.8000157577176,41.0178405226619
Packwood,60915,-92.0830571893085,41.1328771877783
Palmer,61050,-94.5995757600124,42.6305365397704
Palo,61230,-91.80401144422,42.0653242212002
Panama,61275,-95.4751024754021,41.7270979697646
Panora,61320,-94.3630185206174,41.6914361647295
Panorama Park,61365,-90.4536370427387,41.5555854133402
Park View,61725,-90.5421482054071,41.6967924318393
Parkersburg,61590,-92.7828619067227,42.5745354859282
Parnell,61770,-92.0054477255103,41.5831970809942
Paton,61815,-94.2551322136384,42.1641699976648
Patterson,61860,-93.8801062446679,41.3489703630712
Paullina,61905,-95.6875152549757,42.978939942868
Pella,62040,-92.9184424900403,41.406854290434
Peosta,62130,-90.844352134176,42.4509509587166
Percival,62175,-95.8120765061562,40.7522007647488
Perry,62355,-94.0975944588047,41.8396961508667
Persia,62445,-95.5707226486826,41.5791493355599
Peterson,62625,-95.3407169573756,42.9186573654396
Pierson,62760,-95.8676355662453,42.5445095649239
Pilot Mound,62850,-94.015324576547,42.1630345380226
Pioneer,62985,-94.3914121100741,42.654225090328
Pisgah,63075,-95.9258809680444,41.8332914477777
Plainfield,63210,-92.5358088362279,42.8444948157755
Plano,63345,-93.0460523945842,40.7555710354588
Pleasant Hill,63525,-93.5050098617907,41.5899360429602
Pleasant Plain,63615,-91.8591908720408,41.1460370819218
Pleasanton,63570,-93.742606595952,40.5822135454345
Pleasantville,63750,-93.2705943801676,41.3891268568945
Plover,63840,-94.6223051606234,42.8767566208306
Plymouth,63885,-93.123189152368,43.2452000215557
Pocahontas,63975,-94.6719039373646,42.7352045649665
Polk City,64020,-93.7178836702618,41.7725132115209
Pomeroy,64065,-94.6835896468108,42.5476366211284
Popejoy,64110,-93.4282436177872,42.5941144443603
Portland,64155,-93.1248151965006,43.1275183127159
Portsmouth,64200,-95.5198639808815,41.6509363525281
Postville,64290,-91.5653694348714,43.082482676668
Prairie City,64470,-93.2370337056453,41.5975819823261
Prairieburg,64425,-91.4241441867308,42.2377181462942
Prescott,64560,-94.6123367221591,41.0238631335045
Preston,64605,-90.396606017859,42.0512509630642
Primghar,64650,-95.6251996456696,43.0865362938292
Princeton,64740,-90.348473579205,41.6794364478023
Promise City,64875,-93.1496154133311,40.7467636065108
Protivin,65010,-92.0915882151595,43.2158465890905
Pulaski,65055,-92.2733180963999,40.6955938298266
Quasqueton,65235,-91.7561428065929,42.394478893816
Quimby,65280,-95.642180835556,42.6297776904564
Radcliffe,65370,-93.4327075370776,42.3154477603568
Rake,65415,-93.9186019925347,43.4847937743344
Ralston,65505,-94.6334807552026,42.0414750085144
Randalia,65550,-91.8858334489108,42.8628396648064
Randall,65595,-93.6020879169197,42.2369735246091
Randolph,65640,-95.5664157116741,40.8725350449589
Rathbun,65730,-92.8884315586598,40.8012085785794
Raymond,65820,-92.2254248361995,42.4682706120074
Readlyn,65910,-92.2250190754668,42.7032693795304
Reasnor,65955,-93.0230257872741,41.5783337427105
Red Oak,66135,-95.2264931095373,41.0137363027669
Redding,66000,-94.3879492421682,40.6056194369274
Redfield,66045,-94.1955773679083,41.5908275800791
Reinbeck,66315,-92.5976009744328,42.3224380041726
Rembrandt,66360,-95.1661001845418,42.8254651966712
Remsen,66405,-95.970974212963,42.8128956106487
Renwick,66450,-93.977564302774,42.8278197593778
Rhodes,66540,-93.1859313249397,41.9266808198588
Riceville,66585,-92.5540683368289,43.3601810506347
Richland,66720,-91.994399594401,41.184431764655
Rickardsville,66810,-90.8817800383863,42.5821372695416
Ricketts,66855,-95.5750244399147,42.1283292348671
Ridgeway,67035,-91.9882730509612,43.2962630181106
Rinard,67125,-94.4878638629929,42.3383606647639
Ringsted,67170,-94.5080163760083,43.2957020544482
Rippey,67215,-94.2010115344655,41.9339705460183
River Sioux,67530,-96.0468182571919,41.8038071297854
Riverdale,67350,-90.4663143344985,41.5405172248656
Riverside,67440,-91.5736286651984,41.4838329823443
Riverton,67575,-95.5684989286307,40.6870049978924
Robins,67800,-91.6657390887192,42.0729812790351
Rochester,67890,-91.1525538790172,41.6732883784333
Rock Falls,68025,-93.0850789308922,43.2066089110851
Rock Rapids,68160,-96.1696084093936,43.4269434925952
Rock Valley,68205,-96.2949885303463,43.2016903853053
Rockford,68070,-92.948277688488,43.0525192769097
Rockwell,68250,-93.1893599754332,42.9842232007032
Rockwell City,68295,-94.6341273034389,42.3958759489578
Rodman,68340,-94.5269761912818,43.0270719739245
Rodney,68385,-95.9503397093047,42.2045925786292
Roland,68475,-93.5017690694079,42.1654762805682
Rolfe,68520,-94.5304520455448,42.8138094571062
Rome,68565,-91.681895302878,40.9833356140124
Rose Hill,68700,-92.4636595608474,41.3205392176114
Roseville,68800,-92.8101068129667,43.0199653935894
Rossie,68925,-95.1886494818456,43.012641073639
Rowan,69015,-93.5508870405542,42.7401105278581
Rowley,69060,-91.844694569565,42.3693580487995
Royal,69105,-95.2835650659309,43.063980450801
Rudd,69195,-92.9032212755123,43.127598356196
Runnells,69240,-93.3594892748851,41.5119897794425
Russell,69285,-93.1995005773001,40.9820743939958
Ruthven,69330,-94.8989039604499,43.1297604070709
Rutland,69375,-94.2930102021275,42.7596665003456
Ryan,69465,-91.4833743380841,42.3506139897985
Sabula,69510,-90.1734836031235,42.0688919377562
Sac City,69645,-94.9953833083878,42.4205140352747
Sageville,69690,-90.706205617151,42.552704970793
Salem,70230,-91.6203614007422,40.8535822265208
Salix,70320,-96.288462247531,42.3073174905513
Sanborn,70410,-95.6546371886702,43.1821721266593
Sandyville,70590,-93.3861570527865,41.3701616980081
Saylorville,70995,-93.6355957431086,41.691282650722
Scarville,71040,-93.617085838421,43.4711234201134
Schaller,71085,-95.2940238594516,42.4993369865551
Schleswig,71130,-95.4348469808541,42.1630013254577
Scranton,71310,-94.5462669887056,42.0219335871371
Searsboro,71355,-92.7037565311377,41.5796284579158
Sergeant Bluff,71625,-96.3547373767178,42.3977309314816
Sexton,71715,-94.0913612339615,43.0796960899378
Seymour,71760,-93.1198309570548,40.68276889151
Shambaugh,71895,-95.0348794355089,40.6571230310897
Shannon City,71940,-94.2639979611636,40.9005874314018
Sharpsburg,72075,-94.639248360187,40.8021096330065
Sheffield,72210,-93.2174388508224,42.8930455980318
Shelby,72300,-95.4522825717626,41.5148630554354
Sheldahl,72345,-93.6950870197775,41.86410962113
Sheldon,72390,-95.843616360972,43.1809618056326
Shell Rock,72435,-92.5810813934879,42.7111567553434
Shellsburg,72480,-91.8717532990389,42.0938088929268
Shenandoah,72525,-95.3726265485738,40.7622035157247
Sherrill,72660,-90.7840809821112,42.603936834546
Shueyville,72840,-91.6506987610838,41.8444396807766
Sibley,72975,-95.7436440808908,43.4028058976533
Sidney,73065,-95.6458384889855,40.7465974573507
Sigourney,73110,-92.2048568727594,41.3342020621162
Silver City,73155,-95.6371450897197,41.1118703645008
Sioux Center,73290,-96.1690912669724,43.0722800337475
Sioux City,73335,-96.3894934357762,42.4997206395198
Sioux Rapids,73425,-95.1480385134335,42.8922890035585
Slater,73515,-93.685087883763,41.8790205144801
Sloan,73605,-96.2250801114639,42.2336363755655
Smithland,73650,-95.9320122110537,42.2288651022556
Soldier,73785,-95.7806210079719,41.9852154172966
Solon,73875,-91.4947989495913,41.8076442323432
Somers,73920,-94.4308243495151,42.3789389898045
South Amana,73965,-91.9649741514984,41.7733291375264
South English,74055,-92.0889217748157,41.4517697873927
Spencer,74280,-95.1526253024699,43.1451944690395
Spillville,74370,-91.9519700818314,43.2037067262652
Spirit Lake,74415,-95.1113290668266,43.4176783240377
Spragueville,74460,-90.4329242946243,42.0711723304476
Spring Hill,74685,-93.6485539605322,41.4120853690627
Springbrook,74505,-90.476843405657,42.1642800929794
Springville,74775,-91.4462783557642,42.0559883418599
St. Ansgar,69735,-92.9191060735996,43.3789269402217
St. Anthony,69780,-93.197422369738,42.1240337647448
St. Benedict,69825,-94.0632605922334,43.0395027223705
St. Charles,69915,-93.8085189100791,41.2883925525255
St. Donatus,69960,-90.5399415890085,42.3622297359522
St. Joseph,70005,-94.2275824929381,42.9131459011289
St. Lucas,70050,-91.9332673241694,43.0666625022948
St. Marys,70095,-93.7335193146324,41.3080763033459
St. Olaf,70140,-91.387285447451,42.9276923540052
St. Paul,70185,-91.5173512417117,40.7693642546948
Stacyville,74820,-92.7835383194688,43.4371952474756
Stanhope,74910,-93.7958236276189,42.2892379223379
Stanley,74955,-91.8120293719486,42.6424427498743
Stanton,75000,-95.102298751483,40.9812075712334
Stanwood,75045,-91.1489121960627,41.8913795094541
State Center,75135,-93.1653395433819,42.0160919735212
Steamboat Rock,75180,-93.0662783357425,42.4084636077447
Stockport,75405,-91.8336636935225,40.856689218872
Stockton,75450,-90.8562933811702,41.5906804361209
Stone City,75540,-91.3526130939066,42.1136658892501
Storm Lake,75630,-95.2023698903081,42.6447353514485
Story City,75675,-93.5904284955765,42.1865558148371
Stout,75720,-92.7110386342852,42.5262974897928
Stratford,75810,-93.9269236075323,42.2710555089471
Strawberry Point,75855,-91.5378771837501,42.6812396596732
Struble,75945,-96.1933655689165,42.8947233795582
Stuart,75990,-94.318560374751,41.5030647172816
Sully,76035,-92.8473778873753,41.5786563660394
Sumner,76260,-92.0982124572716,42.8500594988544
Sun Valley Lake,76415,-94.0661264223284,40.8522377397883
Superior,76440,-94.9457919578153,43.4315590476821
Sutherland,76485,-95.4980539927256,42.9726251036932
Swaledale,76620,-93.3154499734509,42.9779995282446
Swan,76665,-93.3122281869732,41.4660759934099
Swea City,76755,-94.3093344620179,43.3836697190141
Swisher,76890,-91.6973123773783,41.8443847144396
Tabor,76935,-95.6724411416227,40.8965642121236
Tama,77115,-92.574188337416,41.9667111751447
Templeton,77340,-94.9405944365669,41.9177646639933
Tennant,77430,-95.4433832823867,41.593287241197
Terril,77520,-94.9711539669362,43.305032038093
Thayer,77565,-94.0504057844286,41.0289653457579
Thompson,77745,-93.7716135207802,43.3699763925481
Thor,77790,-94.050325318922,42.6897515385391
Thornburg,77835,-92.3336926862601,41.4547109620732
Thornton,77880,-93.3821041524189,42.9442243835691
Thurman,77970,-95.7515207348899,40.8205390050275
Tiffin,78060,-91.6635670891176,41.7116591843309
Tingley,78195,-94.1944578006727,40.852568254695
Tipton,78285,-91.1278602353287,41.7715839894329
Titonka,78330,-94.041373633355,43.2368998811015
Toeterville,78465,-92.8933478410782,43.4407611640425
Toledo,78510,-92.5784261844704,41.9925539291107
Toronto,78600,-90.8632788517492,41.903590257048
Traer,78735,-92.4655246227219,42.1895618457412
Treynor,78825,-95.6074429090252,41.2319731146241
Tripoli,78915,-92.258466798622,42.8055973057036
Truesdale,79095,-95.1829414558487,42.7291700831909
Truro,79140,-93.8457673909432,41.2086618772557
Turin,79185,-95.9668028541501,42.0206951918933
Twin Lakes,79335,-94.6344875443172,42.4811905758008
Udell,79410,-92.7418932211181,40.7801975742063
Underwood,79500,-95.681118785437,41.3854207927949
Union,79545,-93.0637924687878,42.2449698180062
Unionville,79680,-92.6964419390409,40.8189535484448
University Heights,79770,-91.558742768341,41.6548287150334
University Park,79815,-92.6182005038208,41.2848587528294
Urbana,79905,-91.8827207616173,42.2254584493007
Urbandale,79950,-93.7606967271848,41.633681292104
Ute,79995,-95.7054774983458,42.0500006710815
Vail,80130,-95.2025159958766,42.0612597448885
Valeria,80175,-93.3251024797916,41.7297125979639
Van Horne,80400,-92.0899467175807,42.0090867607051
Van Meter,80445,-93.9532006398475,41.5260403631029
Van Wert,80490,-93.7938430967013,40.8697063480167
Varina,80535,-94.8978185744689,42.6588262211673
Ventura,80580,-93.4666188968958,43.1280610344681
Victor,80805,-92.2951533861775,41.7293331667896
Villisca,80985,-94.982392204224,40.9290379701578
Vincent,81075,-94.0196693303484,42.5922352029697
Vining,81120,-92.3835978925286,41.9900167819157
Vinton,81210,-92.0270242862762,42.1653163853077
Volga,81345,-91.5407679625101,42.8030875051833
Wadena,81570,-91.6559139038753,42.8407089950906
Wahpeton,81615,-95.1756587246413,43.370401036777
Walcott,81705,-90.7762027711995,41.5917141799696
Walford,81840,-91.8325045010777,41.8784343612693
Walker,81885,-91.7804659063585,42.2868662439679
Wall Lake,82020,-95.0925713180942,42.2723436764983
Wallingford,81975,-94.7905458906639,43.3205281876719
Walnut,82065,-95.2224709882224,41.4812804758616
Wapello,82200,-91.1893971304874,41.1789125815171
Washburn,82290,-92.2691330867749,42.4108971821916
Washington,82335,-91.689635732387,41.3004530721176
Washta,82380,-95.7183899781432,42.5749965599939
Waterloo,82425,-92.3468868853875,42.4871707882489
Waterville,82470,-91.2967526184424,43.2085781528086
Watkins,82515,-91.9858079317588,41.8920347807995
Waucoma,82650,-92.0348129914178,43.0568426544125
Waukee,82695,-93.8593416468814,41.6035097206537
Waukon,82740,-91.4791620342756,43.269615622608
Waverly,82875,-92.4744972393855,42.72520277655
Wayland,82965,-91.6598284394559,41.1479782000841
Webb,83010,-95.0132048709906,42.9489260513038
Webster,83055,-92.1689807917874,41.4382692957712
Webster City,83145,-93.8223218711539,42.4637730110505
Weldon,83190,-93.7349835458388,40.8978206120999
Wellman,83280,-91.8358396805752,41.4699256317339
Wellsburg,83325,-92.9273387658242,42.4345014967899
Welton,83370,-90.5956404239192,41.9077903917133
Wesley,83415,-93.9925951856641,43.087189136071
West Amana,83505,-91.9649275330563,41.8073508071602
West Bend,83550,-94.4455252817564,42.9590466600628
West Branch,83595,-91.3483434259626,41.6752329199577
West Burlington,83685,-91.1683518473973,40.8235915201211
West Chester,83775,-91.8171570013797,41.3392822352051
West Des Moines,83910,-93.7715537355237,41.5696126455071
West Liberty,84315,-91.2613817796715,41.5745725699387
West Okoboji,84450,-95.1591022002702,43.3494995605745
West Point,84585,-91.4520270272014,40.7159959074287
West Union,84765,-91.8089006473759,42.9581581220529
Westfield,84090,-96.6031233238185,42.7560297259987
Westgate,84180,-91.9954240167513,42.7683618099103
Weston,84495,-95.74303040408,41.3404898941517
Westphalia,84540,-95.39503606766,41.7202288388211
Westside,84630,-95.0997041927989,42.0742141755769
Westwood,84835,-91.6241042539111,40.9661040327223
What Cheer,84900,-92.3554205378893,41.4008136402176
Wheatland,84945,-90.839593942654,41.8333449218545
Whiting,85215,-96.1527327075914,42.1258006063171
Whittemore,85260,-94.4231632827649,43.0628228219027
Whitten,85305,-93.0046798341548,42.2605769421137
Willey,85710,-94.8222742181917,41.9778996296906
Williams,85800,-93.5434510329201,42.4865877059759
Williamsburg,85845,-92.0133156037262,41.6661370759023
Williamson,85935,-93.25658308721,41.0881042282593
Wilton,86070,-91.0205009356215,41.5900713728902
Windsor Heights,86250,-93.7126568840936,41.6059897870507
Winfield,86385,-91.4386975485158,41.1276847566565
Winterset,86520,-94.0153109862094,41.3366993133331
Winthrop,86565,-91.7354114113385,42.4718586345728
Wiota,86610,-94.8876498599364,41.4019744433897
Woden,86700,-93.9098023706954,43.231480669697
Woodbine,86835,-95.7069405440501,41.7382448945975
Woodburn,86880,-93.5974620251125,41.0120996743344
Woodward,86970,-93.9209807421908,41.8564838098068
Woolstock,87015,-93.8456762510141,42.5674426187642
Worthington,87060,-91.1192872761062,42.3964669940252
Wyoming,87240,-91.0053712140781,42.059589498372
Yale,87285,-94.3551947673808,41.7751288446029
Yetter,87375,-94.8440490211097,42.3161493715904
Yorktown,87420,-95.155046514176,40.7337721139438
Zearing,87555,-93.2972633656476,42.1616268052886
Zwingle,87690,-90.6867300200146,42.2962386281358
Millville,52410,-91.075820,42.703353
